"Station_Name","lat","lon"
"SAWANTWADI ROAD",15.8666372,73.7851423
"MADGOAN JN.",15.2676278,73.9710326
"AURANGABAD",19.8761653,75.3433139
"LUCKNOW JN.",26.8305392,80.9239843
"SHRI MATA VAISHNO DEVI KATRA",33.0308295,74.9490416
"RAJENDRANAGAR TERMINAL",25.6027447,85.1626785
"PATNA JN.",25.6033133,85.1370246
"URKURA",21.3067992,81.6555607
"CST-MUMBAI",18.9398876,72.8354663
"LOKMANYA TILAK TERMINUS",19.0694741,72.891983
"AJNI",21.1269973,79.0826054
"KARMALI",15.4848464,73.9418603
"NAGPUR JN.(CR)",21.154184,79.0874535
"PUNE JN.",18.5284242,73.8738646
"MANGALORE JN",12.866651,74.8792045
"DELHI-SAFDAR JANG",28.5893011,77.2105682
"JABALPUR",23.181467,79.9864071
"BANDRA TERMINUS",19.0625241,72.8413066
"ATARI JN",NA,NA
"SANTRAGACHI JN.",22.5826587,88.2854294
"REWA",34.800053,-82.3652161
"BHOPAL",23.2599333,77.412615
"TRIVANDRUM CENTRAL",8.4869572,76.9526774
"PALANI",10.4489188,77.5209392
"POLLACHI",10.6572737,77.0106693
"HYDERABAD DECCAN",17.3924217,78.4689988
"JAIPUR JN.",26.9196878,75.7880051
"RAJKOT",22.3038945,70.8021599
"CHENNAI CENTRAL",13.0821888,80.2755083
"HATIA",23.2855789,85.3058664
"KOLKATA",22.572646,88.363895
"PURI",19.8133822,85.8314655
"ASANSOL MAIN",23.692191,86.9523199
"DHANBAD JN.",23.7910294,86.4299391
"KUSUNDA",23.7774535,86.3756867
"SONARDIH",23.7970527,86.2628383
"PHULWARTANR",23.7724909,86.2298238
"JASIDIH JN.",24.5156408,86.6437616
"ANAND VIHAR TERMINAL",28.6470843,77.3157711
"DELHI JN.",28.6609677,77.2276704
"HAZRAT NIZAMUDDIN JN",28.5889755,77.2535077
"BIKANER JN.",28.0145884,73.3160072
"HARIDWAR JN",29.9483324,78.1554721
"HANUMANGARH JN.",29.5815012,74.3294199
"SHRI GANGANAGAR",29.9038399,73.8771901
"SADULPUR JN",28.631324,75.386014
"SURATGARH JN.",29.323443,73.906992
"PARVATSAR CITY",26.8856982,74.7644289
"MAKRANA JN.",27.0371828,74.7247203
"JODHPUR JN.",26.283836,73.0225892
"MERTA ROAD JN.",26.7276064,73.9174659
"RATANAGARH JN",NA,NA
"CHURU",28.2925364,74.9707262
"SAHARANPUR JN.",29.9614424,77.5410156
"AMBALA CANTT JN",30.3377034,76.8278782
"PATHANKOT JN.",32.2721981,75.6477348
"JAMMU TAWI",32.7058687,74.8798689
"GORAKHPUR JN.",26.7596174,83.3818111
"BARHNI",27.4975259,82.787235
"CHHAPRA JN.",25.7878258,84.7237049
"BASTI",26.8176796,82.7633133
"KANPUR ANWARGANJ",26.457218,80.3289701
"FARRUKHABAD JN",27.3821694,79.5714452
"BAREILLY CITY",28.3670355,79.4304381
"LALKUA JN.",29.0676175,79.5181884
"JAMALPUR JN.",25.3148307,86.493011
"SAHARSA JN.",25.8733726,86.594274
"JHALAWAR CITY",24.5973494,76.1609838
"KOTA",25.2138156,75.8647527
"NORTH LAKHIMPUR",27.2253189,94.1053307
"MURKEONG SELEK",NA,NA
"GUWAHATI",26.1445169,91.7362365
"SILCHAR",24.8332708,92.7789054
"NEW JALPAIGURI JN",26.6842232,88.442823
"KISHANGANJ",26.0917422,87.9383822
"KATIHAR JN.",25.5479749,87.5651973
"SILIGURI JN.",26.723645,88.413782
"RANGIYA JN.",26.4467216,91.6063694
"RANGAPARA NORTH",26.8213925,92.6825556
"CHENNAI EGMORE",13.0732259,80.2609209
"TIRUNELVELI JN",8.7313945,77.7082141
"ERNAKULAM. JN",9.9697584,76.290888
"PONDICHERRY",11.9415915,79.8083133
"QUILON",51.4987064,-0.1376716
"KOCHUVELI",8.509675,76.8972041
"CHENGALPATTU",12.6839952,79.9833483
"MADURAI JN",9.9204101,78.1103443
"COIMBATORE  JN.",10.9960612,76.9677666
"MARIKUPPAM",12.9237401,78.2689714
"BANGARPET JN.",12.9846782,78.1789961
"YESVANTPUR JN.",13.0238231,77.5508521
"PANDHARPUR",17.6745535,75.3237262
"VISAKHAPATNAM",17.6868159,83.2184815
"BELGAUM",15.8496953,74.4976741
"HOSUR",12.7409127,77.8252923
"WHITE FIELD",33.8222833,-84.5095826
"BAIYYAPPANAHALLI",12.9935666,77.6435896
"DEVANHALLI",13.2417155,77.7137306
"KORBA",22.3594501,82.7500595
"BILASPUR JN.",22.0561061,82.1718547
"PALGHAT TOWN",10.7867303,76.6547932
"KARAIKAL",10.9254398,79.8380056
"NAGORE",10.8127803,79.8391001
"HUBLI JN.",15.3480196,75.1606944
"BIJAPUR JN",16.830056,75.739485
"RAXAUL JN.",26.9868551,84.8447378
"SECUNDERABAD JN.",17.433704,78.5016333
"DARBHANGA JN.",26.1547905,85.9072674
"KACHEGUDA",17.3896726,78.4960144
"TIRUPATI",13.6287557,79.4191795
"KAKINADA PORT",16.9538117,82.2409057
"VIJAYWADA JN.",16.5184698,80.6195229
"KAKINADA TOWN",16.9890648,82.2474648
"KARIM NAGAR",18.4385553,79.1288412
"NARASAPUR",16.4329833,81.6966198
"NAGARSOL",20.1013024,74.542992
"TATANAGAR JN",22.7679095,86.201063
"ADILABAD",19.6640624,78.5320107
"BIDAR",17.9148799,77.5046101
"NEW BONGAIGAON  JN.",26.47546,90.53718
"KRISHNA RAJA PURAM",13.0040167,77.6877765
"NANDED",19.1382514,77.3209555
"NIZAMABAD",18.6725047,78.0940867
"RENIGUNTA JN.",13.638038,79.5068283
"KHARAGPUR",22.34601,87.2319753
"JHARGRAM",22.4549909,86.9974385
"MIDNAPORE",22.4308892,87.3214908
"BALASORE",21.4869337,86.9246005
"SHALIMAR",38.8449162,-94.5119142
"BANKURA",23.164543,87.0624261
"BISHNUPUR",23.0678795,87.3165222
"CHAIBASA",22.5474364,85.8025373
"CHAKARADHARPUR",22.6765454,85.6254997
"SAMBALPUR JN.",21.4835923,83.9606985
"BANASWADI",13.0119571,77.6471307
"KIRANDUL",18.6336444,81.2573899
"BALHARSHAH",19.8390022,79.3634517
"CHANDAFORT",19.9402823,79.3126226
"RANCHI",23.3440997,85.309562
"HOWRAH JN.",22.5839456,88.3434068
"DURG",21.1904494,81.2849169
"MUMBAI CENTRAL",18.970798,72.819512
"NEW DELHI",28.6139391,77.2090212
"GANDHIDHAM JN.",23.068412,70.147656
"AJMER JN.",26.4570946,74.6371962
"UDAIPUR CITY",24.585445,73.712479
"SAI NAGAR SHIRDI",19.7806599,74.4805113
"DADAR",19.021324,72.8424178
"BHUBANESWAR",20.2960587,85.8245398
"CHHATRAPATI SHAHU MAHARAJ TERMINUS",18.9398876,72.8354663
"BHUSAVAL JN.",21.0481732,75.7886058
"SOLAPUR",17.6599188,75.9063906
"MYSORE JN.",12.3162742,76.6454722
"GONDIA JN.",21.4620115,80.1919916
"MIRAJ JN.",16.8193811,74.6394797
"AHMEDABAD",23.022505,72.5713621
"AZAMGARH",26.0737044,83.1859458
"AMRITSAR JN.",31.6332367,74.8671794
"SALEM JN.",11.670396,78.1133473
"FAIZABAD JN.",26.7680706,82.1317942
"VARANASI JN.",25.3267898,82.9862521
"KAZIPET JN.",17.974973,79.511222
"VERAVAL",20.9158979,70.3628516
"BHAGAT-KI-KOTHI",26.2582954,73.0167426
"NEW BHUJ",23.2322266,69.7007797
"GWALIOR JN",26.2157175,78.1820948
"JHANSI JN",25.4442179,78.5533213
"BALRAMPUR,",27.4308339,82.3017728
"BARAUNI JN.",25.4629185,85.988173
"INDORE BG",22.7169994,75.8684639
"AMBIKAPUR",23.1354921,83.1817856
"KRANTIVIRA SANGOLLI RAYANNA (BENGALURU STATION)",12.9781289,77.5695678
"GULBARGA",17.329731,76.8342957
"AMRAVATI",20.9374238,77.7795513
"SOMNATH",20.8879934,70.4011621
"SINGRAULI",24.1992101,82.6645469
"MHOW",22.5524372,75.7565273
"ETAWAH",26.8117116,79.0046898
"MATHURA JN.",27.4794633,77.6734795
"KURUKSHETRA JN.",29.969467,76.8519728
"HABIBGANJ",23.2218567,77.4392576
"KALKA",30.8354407,76.9317612
"DEHRA DUN",30.3164945,78.0321918
"BARBIL",22.1053397,85.3789642
"KANPUR CENTRAL JN.",26.4538551,80.3511947
"AGRA  FORT",27.1795328,78.021112
"LUDHIANA JN.",30.9126909,75.8485121
"KATHGODAM",29.2693264,79.5441198
"MOGA",30.8230114,75.1734471
"CHANDIGARH",30.7333148,76.7794179
"FIROZPUR CANTT JN.",30.9416573,74.6175879
"AGRA CANTT",27.1540265,78.0146364
"UNA HIMACHAL",31.468445,76.2707745
"JORHAT TOWN",26.7465203,94.2025859
"RAIGARH",21.8974003,83.3949632
"JALNA",19.8296893,75.8800305
"CALICUT",11.2587531,75.78041
"KANNUR",11.8744775,75.3703662
"MAYILADUTURAI JN.",11.0957207,79.628505
"DIBRUGARH",27.4728327,94.9119621
"NAHARLAGUN",27.0985774,93.6948869
"MANMAD JN.",20.2495627,74.437547
"PATLIPUTRA",25.5940947,85.1375645
"SULTANPUR JN.",26.2645906,82.0671071
"DANAPUR",25.6206672,85.0493253
"PARTAPGARH JN.",25.9130282,82.0013417
"MUZAFFARPUR JN.",26.1219264,85.3791005
"DELHI-SARAI ROHILLA",28.6628677,77.1853708
"BHAGALPUR",25.3478004,86.9824288
"SEALDAH",22.5676461,88.3707442
"ALLAHABAD JN.",25.4452394,81.8249305
"NANGAL DAM",31.4111964,76.4334066
"ALLAHABAD CITY",25.4358011,81.846311
"BOLPUR",23.6686892,87.6827676
"RAMPUR HAT",24.1813784,87.7812524
"HALDIBARI",26.3345442,88.7806578
"JAISALMER",26.9157487,70.9083443
"NEW ALIPURDUAR",26.4863798,89.5411883
"GAYA JN.",24.8032413,84.9997072
"RAJGIR",25.0172573,85.4161642
"ISLAMPUR",26.2546438,88.1974148
"DIBRUGARH TOWN",27.4728327,94.9119621
"HALDIA",22.0666742,88.0698118
"MANIKPUR JN.",25.0632687,81.0940625
"HAPA",36.277649,-95.8224874
"JAMNAGAR",22.4707019,70.05773
"JOGBANI",26.3991195,87.2568579
"BANGALORE CANTT.",12.99364,77.5980041
"KAMAKHYA JN",26.157295,91.6920453
"RAMNAGAR",29.3947643,79.1264997
"RAIPUR JN.",21.257068,81.6296015
"MANDUADIH",25.2995695,82.9722609
"HISAR JN",29.1520651,75.724673
"JAYNAGAR",26.5883988,86.1370148
"MANGALORE CENTRAL",12.9141417,74.8559568
"KARAIKKUDI",10.0731315,78.7801544
"KANNIYAKUMARI",8.0883064,77.5384507
"TIRUCHIRAPPALLI JN.",10.7947068,78.6848465
"NAGERCOIL JN.",8.174938,77.44391
"SENGOTTAI JN",8.9872543,77.2423045
"METTUPALAIYAM JN.",11.2890873,76.9409686
"SRI SATYA SAI PRASANTI NILAYAM",14.1661762,77.8075053
"TUTICORIN",8.7641661,78.1348361
"GUNTUR JN.",16.3003756,80.4430079
"GUDUR JN.",14.1486494,79.8456227
"DHARWAD",15.4589236,75.007808
"VASCO-DA-GAMA",15.3860329,73.8440398
"VIKRABAD JN.",17.3375573,77.909672
"MACHILIPATNAM",16.1905457,81.1361543
"SIRPURKAGHAZ NAGAR",19.3581456,79.4823339
"CHITTOOR",13.217176,79.1003289
"PURULIA JN.",23.3258979,86.377838
"BOKARO STEEL CITY",23.6692956,86.151112
"DIGHA FS",21.6230961,87.508256
"TITLA GARH JN.",20.285188,83.154274
"BHOJUDIH JN.",23.6419125,86.4469115
"BANGRIPOSI",22.152718,86.5413297
"BALANGIR",20.7074234,83.4842725
"PORBANDAR",21.6417069,69.6292654
"VALSAD",20.5992349,72.9342451
"SURAT",21.1702401,72.8310607
"VADODARA JN.",22.310805,73.1808827
"DAHOD",22.8379314,74.2531465
"BHAVNAGAR TERMINUS",21.7817674,72.1422328
"MAHUVA",21.0921598,71.7704631
"MALDA TOWN",25.0162488,88.130609
"BARDDHAMAN JN.",23.2501746,87.8696234
"AZIMGANJ JN.",24.2307743,88.2594677
"SIURI",23.9040878,87.524748
"BALURGHAT",25.2372834,88.7830612
"LALGOLA",24.4133349,88.2607188
"BALLIA",25.8307174,84.1857115
"GEDE",-3.30636,40.0113847
"GHAZIPUR CITY",25.5834149,83.5672159
"PETRAPOLE",23.0359532,88.8766899
"RADHIKAPUR",25.6432275,88.4479386
"NEW COOCH BEHAR",26.3528017,89.4688034
"ALIPUR DUAR JN.",26.5237318,89.5341347
"SITAMARHI",26.5952476,85.4808393
"SAHIBGANJ",25.2381216,87.6453592
"BANKA",24.7757005,86.8220341
"BHABUA ROAD",25.1727483,83.6194533
"DEOGHAR",24.4763201,86.6913222
"BARKAKANA",23.6227489,85.4607639
"ALLEPPEY",9.4980667,76.3388484
"NABADWIP DHAM",23.4036446,88.3676393
"GONDA JN.",27.1542698,81.9771685
"HOSHIARPUR",31.5143178,75.911483
"AGARTALA",23.831457,91.2867777
"SIKAR JN.",27.616515,75.152901
"KOTDWARA",29.7524013,78.5269027
"TILAK BRIDGE",28.6280264,77.2375508
"SIRSA",29.5335931,75.0177029
"PRAYAG JN.",25.4681761,81.8674
"CHITRAKUTDHAM KARWI",25.2157049,80.9212199
"ALIGARH JN.",27.8890473,78.0749473
"MANKAPUR JN.",27.0396698,82.2268666
"MEERUT CITY JN.",28.9788255,77.6749497
"JAUNPUR JN.",25.7614209,82.6992568
"RAE BARELI JN.",26.232205,81.2391027
"BAREILLY JN.",28.3369682,79.4108723
"UJJAIN JN",23.1781665,75.7792277
"ROHTAK JN.",28.8906738,76.5801218
"BARWADIH JN",23.8437071,84.1164241
"CHOPAN",24.5232651,83.0200245
"BATHINDA JN",30.212796,74.9331147
"FARUKHNAGAR",28.4489896,76.8227916
"AMB  ANDAURA",31.6704872,76.1104491
"RISHIKESH",30.0869281,78.2676116
"CHHINWARA JN",22.057826,78.9537741
"BARMER",25.7598589,71.3824374
"JALANDHAR CITY JN.",31.331196,75.5907214
"LALGARH JN.",28.043342,73.31444
"BHIWANI JN.",28.8002554,76.1240173
"FAZILKA JN.",30.4086471,74.0268073
"PANIPAT JN.",29.3902543,76.9636417
"ALWAR JN.",27.5605354,76.6213983
"MUNABAO",25.7446275,70.2780362
"VARANASI CITY",25.3176452,82.9739144
"NAUTANWA",27.4241659,83.4269996
"MAU JN.",25.9391719,83.5641959
"KASGANJ JN.",27.8007898,78.6445227
"OKHA",22.4649185,69.0701995
"PANVEL",18.9894007,73.1175162
"BADSHAHNAGAR",26.869313,80.9609809
"RAMESWARAM",9.2876254,79.3129291
"NARKATIAGANJ JN.",27.1052055,84.4619686
"SILGHAT TOWN",26.6197416,92.94944
"UDHNA JN.",21.1705123,72.8510335
"LEDO",39.025662,-77.148047
"FURKATING JN.",26.464508,94.0018857
"TAMBARAM",12.9229153,80.1274558
"DIMAPUR",25.8629885,93.7536663
"MARIANI JN.",26.6532314,94.3090403
"DHUBRI",26.0206982,89.9743463
"LUMDING JN.",25.7505782,93.1765539
"DEKARGAON",26.6806088,92.7630446
"NEW TINSUKIA JN",27.4798045,95.3340323
"JHAJHA",24.7744999,86.3756867
"ARAKKONAM JN",NA,NA
"JOLARPETTAI JN",12.562827,78.5777084
"TIRUCHENDUR",8.4963081,78.1250848
"GURUVAYUR",10.5952496,76.0362579
"VANCHI MANIYACHCHI JN",8.8826659,77.8908536
"MANNARGUDI",10.6648689,79.4507152
"THANJAVUR JN.",10.7777633,79.1397247
"NAGAPPATTINAM",10.7656082,79.8423888
"VELANKANNI",10.6819262,79.8436796
"TALGUPPA",14.2158245,74.9004158
"SHORANUR JN.",10.7592773,76.2714453
"NILAMBUR ROAD",11.2788168,76.2538908
"KAWR",NA,NA
"HARIHAR JN.",14.5154608,75.811063
"SHIMOGA TOWN",13.9299299,75.568101
"ERODE JN.",11.3287349,77.7257605
"PUNALUR",9.009768,76.9297354
"PALAKKAD JN",10.8007911,76.639802
"GUNTAKAL JN.",15.1755264,77.3667171
"KURNOOL TOWN",15.8281257,78.0372792
"MANUGURU",17.9312067,80.8266197
"DHARMAVARAM JN.",14.426474,77.715774
"NIDADAVOLU JN.",16.898046,81.674403
"BAGALKOT",16.1725355,75.6557206
"GUDIVADA JN.",16.4305131,80.988339
"PURNA  JN.",19.1809797,77.0256803
"REPALLE",16.0174248,80.8294747
"AKOLA JN.",20.7227945,77.005081
"NARKHER",21.4691505,78.5291706
"DHARMABAD",18.8991513,77.8424456
"JAGADALPUR",19.0740973,82.008014
"BHANJPUR",21.9332012,86.7252906
"ROURKELA",22.260423,84.8535844
"KORAPUT JN.",18.792019,82.719012
"GUNUPUR",19.0754648,83.8128265
"GEVRA-ROAD",22.3493045,82.6461284
"RAYAGADA JN.",19.1753793,83.4107239
"MURI",23.3784241,85.8614181
"PARADEEP",20.3165523,86.6113628
"JUNAGARH ROAD",19.8734592,82.946945
"DUMKA",24.2854664,87.2419299
"PURNEA COURT",25.7701314,87.4703681
"UDHAMPUR",32.9159847,75.1416173
"PALANPUR JN",24.174897,72.4307856
"GANDHINAGAR CAPITAL",23.2156354,72.6369415
"RATLAM JN",23.3405576,75.0504837
"NATHDWARA",24.9291411,73.8213213
"MADAR JN",26.46283,74.6851207
"KHAJAURAHO",24.8318452,79.9198549
"CHITTAURGARH JN",24.8887435,74.6269216
"MAHOBA",25.2920964,79.8724168
"BHIND",26.5587354,78.7872876
"DAMOH",23.8380986,79.4421731
"VILLUPURAM JN.",11.9417075,79.4991506
"HASSAN JN.",13.0068142,76.0995519
"ADRA",39.0612335,-76.9657546
"BHILAD",20.2768555,72.8810859
"PALITANA",21.5346305,71.8274846
"RANINAGAR JALPAIGURI",26.548711,88.6482533
"SHAKTINAGAR",24.1207356,82.6930529
"GARWA ROAD JN.",24.2147119,83.8853541
"NAJIBABAD JN.",29.603907,78.336318
"MORADABAD JN.",28.8317357,78.7657287
"SAGAULI JN.",26.7586446,84.7393809
"MANDSOR",24.076836,75.0692952
"BALLYGUNGE JN.",22.5193242,88.3720711
"BARRACKPORE",22.7674278,88.3883455
"NEW ALIPUR (CALCUTTA)",22.5089709,88.3329766
"NAIHATI JN.",22.8875749,88.4180827
"MAJERHAT",22.5186849,88.3223635
"KALYANI SIMANTA",22.9876422,88.4279716
"BENOY BADAL DINESH BAG",22.5711841,88.3470047
"PRINCEP GHAT",22.5551356,88.3315282
"BARASAT JN.",22.7239938,88.4837518
"DATTAPUKUR",22.7711798,88.5444475
"HASANABAD",29.211729,51.2075694
"HABRA",33.9318591,-117.946137
"BANGAON JN.",23.0306812,88.8329348
"MADHYAM GRAM",22.6925015,88.465448
"CHAMPAHATI",22.4042861,88.4936595
"LAKSHMIKANTAPUR",22.1098673,88.3208731
"BUDGE BUDGE",22.4649703,88.1681551
"KATWA JN.",23.6402747,88.1229268
"KANKURGACHHI ROAD JN.",22.579283,88.386205
"SHANTIPUR JN.",23.2629254,88.4358445
"RANAGHAT JN.",23.1737474,88.5684415
"KRISHNA NAGAR CITY JN.",23.3885246,88.4935647
"DANKUNI JN.",22.6780671,88.2904174
"BARUI PARA",22.762214,88.2436844
"CANNING",36.195848,-94.439867
"DUM DUM JN.",22.6211823,88.3929676
"GOBARDANGA",22.8832286,88.7638294
"DUMDUM CANTONMENT",22.6369351,88.4123195
"THAKURNAGAR",27.0674837,83.2479243
"BARUIPUR JN.",22.365983,88.431509
"SONARPUR JN.",22.410817,88.424094
"NAMKHANA",21.7699486,88.231513
"DIAMOND HARBOUR",22.1987268,88.2022876
"MAGRAHAT",22.2419599,88.3784237
"KWAKDWIP",21.876028,88.185276
"BALGONA",43.0685459,-94.2264541
"SHRIPAT SHRIKHANDA",23.6067119,88.072669
"CHANDANPUR",19.8872813,85.8140627
"GURAP",23.0347867,88.1218171
"MASAGRAM",23.1335279,88.0399767
"SHRIRAMPUR",19.6222323,74.6576091
"SEORAPHULI JN.",22.7749373,88.3284038
"BELURMATH",22.6321853,88.3558912
"BANDEL JN.",22.9227585,88.3776967
"SINGUR",22.814957,88.234481
"HARI PAL",22.8172172,88.1047287
"TARAKESHWAR",22.8786554,88.014294
"ARAMBAG",22.8727502,87.7910891
"BALLY",33.8530334,-84.361745
"PUNDOOAH",23.0708199,88.2698166
"MEMARI",23.1745017,88.1047287
"PANSKURA",22.3955818,87.7418842
"ULUBARIA",22.4744363,88.1000377
"BAGNAN",22.4671065,87.970232
"MECHEDA",22.410162,87.8631425
"BALICHAK",22.3601451,87.5568898
"KOLAGHAT",22.4329227,87.8598861
"AMTA",42.045608,-87.678639
"CHENNAI BEACH",13.0499526,80.2824026
"ST. THOMAS MOUNT",13.005056,80.193306
"PALLAVARAM",12.9673484,80.1526888
"TIRUMALPUR",12.9544671,79.6747678
"KANCHIPURAM",12.8341735,79.7036402
"VELACHEERY",12.975444,80.220645
"MOOR MARKET",53.3754977,-1.4728727
"GUMMIDIPUNDI",13.4069483,80.1102998
"PONNERI",13.3378301,80.1929013
"SULLURUPETTA",13.70215,80.0180717
"AVADI",13.1067448,80.0969511
"PATTABIRAM E DEPOT",13.1460439,80.068611
"TIRUVALLUR",13.1444426,79.8940078
"TIRUTTANI",13.1758491,79.6109049
"ENNORE",13.2145944,80.3202929
"PATTABIRAM EAST CABIN",13.118641,80.0730941
"TIRUNINRAVUR",13.1197998,80.0307173
"KADAMBATTUR",13.1019449,79.8618833
"LINGAMPALLI",17.4830213,78.3177875
"FALAKNUMA",17.3313295,78.4661712
"RATNAGIRI",16.990215,73.3120233
"DIVA JN",NA,NA
"DAUND JN.",18.4640056,74.5789146
"CHALISGAON JN.",20.4632956,74.9989431
"DHULE",20.9042201,74.7748979
"BADNERA JN.",20.8576751,77.731569
"NEW AMRAVATI",20.9030303,77.7328373
"ITARSI",22.6054858,77.753544
"DEVLALI",19.4728013,74.6210115
"KATNI",23.8308453,80.4072255
"CHHEOKI",25.3745386,81.8526104
"WARDHA JN.",20.732814,78.594717
"AMLA JN.",21.9195577,78.1228676
"BETUL",21.9011601,77.8960201
"BORDHAI",22.0030276,78.3529326
"KARJAT",18.9192249,73.3277223
"BARAMATI",18.1841352,74.6107628
"CASTLE ROCK",45.9106074,-84.7415989
"BELLARY JN.",15.1453649,76.922373
"IGATPURI",19.6973156,73.5609361
"PARLI VAIJNATH",18.8453169,76.5198462
"SANGLI",16.8523973,74.5814773
"LONDA JN.",15.4490072,74.496447
"SATARA",17.6804639,74.018261
"KURDUVADI JN.",18.0922214,75.416631
"BINA",38.3482335,-97.0184149
"KATNI MURWARA",23.8308453,80.4072255
"CHIRMIRI",23.1879502,82.354162
"GUNA",40.652801,-75.49831
"SATNA",24.6005075,80.8322428
"KHANDWA JN. (CR)",21.8234927,76.3527879
"BIR",41.9970542,-87.7193154
"NAINPUR JN.",22.4258771,80.1089974
"MADANMAHAL",23.1602695,79.9208209
"ANUPPUR JN.",23.1177657,81.6962705
"AIT JN",NA,NA
"KONCH",26.0047669,79.1604971
"SHAMLI",29.4507575,77.3152116
"MARWAR JN.",25.7204181,73.6094754
"MAVLI JN.",24.794665,73.973977
"GWALIOR (NG)",26.2157175,78.1820948
"SHEOPUR KALAN",25.6711824,76.7005056
"SABALGARH",26.2469802,77.4070144
"DHOLPUR (NG)",26.6992364,77.9044899
"SIRMUTTRA",NA,NA
"TANTPUR",26.8397507,77.4730653
"BARI",41.1171432,16.8718715
"PILIBHIT JN.",28.6156607,79.8142314
"MAILANI JN.",28.2870712,80.3463754
"SHAHJAHANPUR JN",27.8979979,79.8955799
"TIKUNIA",28.38133,80.966583
"BAHRAICH",27.5708377,81.5980246
"NEPALGANJ ROAD",28.011466,81.601404
"SHIMLA",31.1048145,77.1734033
"JAWALAMUKHI ROAD",32.016157,76.226599
"BAIJNATH PAPROLA",32.0528329,76.6340511
"JOGINDER NAGAR",31.9912388,76.7899135
"DARJEELING",27.0360066,88.2626751
"KURSEONG",26.8821382,88.2788511
"RANUJ",23.7600173,72.2230545
"AHMEDABAD JN.",23.0267771,72.600873
"VERAVAL MG",20.911543,70.370945
"DHASA JN (MG)",21.7827124,71.5180215
"JETALSAR JN (MG)",NA,NA
"BOTAD JN (MG)",NA,NA
"GANDHIGRAM",10.2866333,77.9318668
"DELVADA",20.7764585,71.0423481
"JUNAGADH JN",21.5294899,70.4578231
"KODINAR",20.8009246,70.6960306
"KHIJADIYA JN",21.5489208,70.9970304
"SANAWAD",22.1764007,76.068199
"BARHARWA JN.",24.8578739,87.7746422
"MOKAMA JN.",25.3921849,85.9141634
"FATUHA",25.4271316,82.0543341
"SASARAM",24.949036,84.0314295
"BAKHTIYARPUR JN.",25.4558462,85.5323427
"TILAIYA",24.3190189,85.5277488
"SINDRI TOWN",23.7483096,86.7058637
"NSC BOSE J GOMO",23.8717293,86.1524866
"DEHRI-ON-SON",24.9277351,84.1909841
"CHUNAR JN.",25.1038201,82.8718127
"KAWAR",19.0833333,12.8666667
"KODERMA",24.4676805,85.5933645
"KIUL JN.",25.1465765,86.0962783
"HANSDIHA",24.6000086,87.0799077
"TINPAHAR JN.",24.9967305,87.7434656
"RAJMAHAL",38.8815454,-94.7870067
"MADHUPUR JN.",24.2709756,86.6421576
"GIRDIH",24.19135,86.2996368
"DILDARNAGAR JN",25.4195592,83.6684396
"MUGHAL SARAI JN.",25.2784626,83.1199829
"TARIGHAT",NA,NA
"JIND JN",29.3296142,76.2894282
"NARWANA JN.",29.5890406,76.1094272
"REWARI JN.",28.2032765,76.610583
"JAKHAL JN.",29.803284,75.820035
"SITAPUR CITY JN.",27.5839037,80.666356
"RAGHURAJ SINGH",NA,NA
"UNCHAHAR JN.",25.9028168,81.3002278
"AYODHYA",26.7879633,82.1985518
"ARA",39.1719386,-94.6300316
"CHANDAUSI JN.",28.4586858,78.7803825
"BALAMAU JN.",27.1671945,80.3529465
"SITAPUR CANTT",27.5574969,80.6993975
"BURHWAL JN.",27.0834783,81.3877176
"ROZA JN",27.852834,79.9556155
"GAJRAULA JN.",28.834798,78.2492439
"SAMBAHAL HATIM SARAI",28.59702,78.568495
"KHURJA JN",28.2074421,77.8184018
"MEERUT CANT",28.993758,77.6822442
"BANDIKUI JN.",27.0391382,76.5666988
"TUNDLA JN",27.2081203,78.2330872
"ETAH",27.5587505,78.662567
"DHURI JN.",30.372987,75.8662474
"PATIALA",30.3397809,76.3868797
"LOHIAN KHAS JN.",31.1649334,75.1956429
"JAIJON DOABA",31.3458985,76.1479397
"ABOHAR",30.1452928,74.1993043
"SAWAI MADHOPUR JN",26.0189871,76.3575495
"BILARA",26.1803099,73.7057166
"BHATNI JN.",26.3813257,83.9330051
"SIWAN JN.",26.2107086,84.358956
"SAMASTIPUR JN.",25.8599895,85.7863556
"NAKAHA JUNGLE",26.802234,83.3604681
"DALIGANJ JN",26.8752389,80.927707
"KAPTANGANJ JN.",26.9253759,83.6993842
"BETTIAH",26.8028048,84.5169757
"BARHAJ BAZAR",26.2837945,83.7308756
"SALEMPUR JN.",26.2978884,83.9234271
"THAWE JN.",26.4389333,84.3940476
"SHAHGANJ JN.",26.061245,82.67989
"AUNRIHAR JN.",25.54512,83.187738
"DURAUNDHA JN",26.0869363,84.4593887
"MAHARAJGANJ",27.1177463,83.5070203
"CHHAPRA KACHEHRI",25.7859256,84.7459424
"KASHIPUR JN",29.2104232,78.9618845
"SHIKOHABAD JN.",27.0862449,78.5755779
"ACHHNERA JN.",27.1815727,77.7579674
"BHARATPUR JN",27.2363645,77.4887574
"MAJHOLA PAKARIYA",NA,NA
"BAMANHAT",26.0718287,89.5863038
"HAJIPUR JN.",25.7021369,85.2154258
"BATHUA BAZAR HALT",NA,NA
"PURNEA JN.",25.7892226,87.5190262
"DAURAM MADHEPURA",25.908635,86.7828921
"BIRAUL",25.9426399,86.2437941
"MAIRABARI",26.451241,92.426171
"MAISHASHAN",24.8234339,92.2891503
"JIRIBAM",24.7864347,93.1538899
"BHAIRABI",26.618471,92.818966
"DHARMANAGAR",24.3783242,92.1548473
"UDAIPUR",24.585445,73.712479
"DULLABCHERRA",24.4858154,92.4341515
"BADARPUR JN.",24.8657662,92.5565758
"MALDA COURT",25.0005109,88.1470552
"SINGHABAD",24.9149735,88.291924
"OLD MALDA",25.0557268,88.1364591
"BHALUKPONG",27.0105311,92.6462262
"BUNIYADPUR",25.3875501,88.387051
"MENDIPATHAR",25.915144,90.633933
"TINSUKIA JN.",27.486149,95.3560931
"SIMALUGURI JN.",26.9177061,94.7563797
"KATPADI JN",12.9717557,79.1384756
"VELLORE CANTT",12.910673,79.1278267
"CUDDAPAH",14.4673541,78.8241339
"TRICHUR",10.5276416,76.2144349
"METTUR DAM",11.8037584,77.8074214
"KARUR JN.",10.9600778,78.0766036
"UDHAGAMANDALAM",11.4064138,76.6932438
"COONOOR",11.3530022,76.7959095
"CHAMRAJANAGAR",11.9261471,76.9437312
"NANJANGUD TOWN",12.1199769,76.680093
"TUMKUR",13.3391677,77.1139984
"ARSIKERE JN.",13.313865,76.253156
"CHIKMAGALURU",13.315258,75.7754018
"KOTTAYAM",9.5915668,76.5221531
"EDAMANN",9.007127,76.982551
"KAYANKULAM JN",9.1824314,76.5125892
"CHITRADURG",14.2305594,76.3984537
"CHIKJAJUR JN.",14.1238021,76.1399684
"KABAKA PUTTUR",12.7836766,75.1629825
"SUBRAHMANYA ROAD",12.731555,75.5579568
"CHERVATTUR",12.2165159,75.1626153
"KASARAGOD",12.5102239,74.9851678
"BYNDOOR",13.8685178,74.6341875
"DINDIGUL JN",10.353943,77.986084
"BAGAVATHIPURAM",8.7301409,76.7736869
"KUMBAKONAM",10.9616945,79.3881132
"THIRUVARUR JN.",10.765183,79.633624
"HOSPET JN.",15.2871077,76.3861445
"BIRUR JN.",13.5933056,75.9729394
"KULEM",15.3318441,74.239942
"SIRPUR TOWN",19.4769446,79.5711655
"BHADRACHALAM ROAD",NA,NA
"BOLARUM",17.5287165,78.5149691
"RAICHUR",NA,NA
"DORNAKAL JN.",NA,NA
"BITRAGUNTA",14.7949897,79.9584397
"BHIMAVARAM JN.",NA,NA
"MEDCHAL",17.6302223,78.4842132
"MACHERLA",NA,NA
"NADIKUDE JN.",NA,NA
"DHONE JN",15.3953375,77.8681195
"MAHBUBNAGAR",16.7375089,78.0081221
"BODHAN",18.6794407,77.8767442
"RAYA DRUG",14.696869,76.8546505
"MIRZAPALI",18.0177352,78.4147925
"PARBHANI JN.",19.2576763,76.7737167
"TANDUR",35.9312631,-84.0105851
"GADAG JN.",15.436707,75.642186
"WADI JN.",17.0521762,76.9913644
"BHADRAKH",21.0582737,86.4958396
"KHURDA ROAD JN.",20.1533246,85.70864
"JAJPUR KEONJHAR ROAD",20.9433485,86.1327199
"CHAKULIA",22.4733583,86.7164863
"GUA",22.2119084,85.3833703
"ITWARI JN.",NA,NA
"JHARSUGUDA JN.",21.8621571,84.0174707
"BIRMITRAPUR",22.4085842,84.7158823
"BARSUAN",21.8528098,85.0986527
"GARBETA",22.8631347,87.3537738
"CHANDIA ROAD",23.6461565,80.701418
"MANENDRAGARH",23.2138905,82.201276
"LANJI GARH ROAD",19.9475516,83.393628
"CUTTACK JN.",20.4654693,85.9007026
"BERHAMPUR",19.9338332,84.5837506
"TALCHER",20.9501027,85.216816
"PALASA",18.7747161,84.4093876
"ANGUL",20.8444033,85.1510818
"KENDUJHAR",21.5151196,85.684578
"NAYAGARHTOWN",20.1231332,85.1038426
"LOHARDAGA  BS",23.4409325,84.6845216
"TORI",36.7520276,-95.9410647
"SHAHDOL",23.3021885,81.3568021
"KENDRI",41.786261,-124.1714541
"DHAMTARI",20.7014999,81.5541579
"RAJIM",20.9632408,81.8907184
"ABHANPUR JN.",21.051998,81.745357
"WADSA",20.6202144,79.9653802
"RAMTEK",21.3928618,79.3268397
"TIRODI",21.6858605,79.7231612
"TUMSAR RD",21.3421386,79.7510425
"NAGBHIR JN.",NA,NA
"VIRAR",19.4563596,72.7924612
"VAPI",20.3893155,72.9106202
"VIRAMGAM JN",23.127599,72.053513
"KATHANA",22.2944699,72.7892186
"PRATAP NAGAR",28.6666314,77.1990591
"CHHOTA UDEPUR",22.3084941,74.0119993
"NADIAD JN.",22.6949041,72.8558815
"MODASA",23.4628686,73.2999385
"BHARUCH JN.",21.7033938,72.9996791
"ANAND JN.",22.5617082,72.9663035
"VADTAL SWAMINARAYAN",22.5915534,72.8739818
"ANKLESHWAR JN.",21.6255803,73.001253
"RAJPIPLA",21.8715143,73.5030517
"SURENDRANAGAR",NA,NA
"KANALUS",22.3173661,69.9029219
"BHANVAD",21.9290403,69.7837951
"BOTAD",22.1704232,71.6684269
"DHRANGADHRA",22.9832248,71.474461
"DHOLA JN",21.8222026,71.7394215
"RAJULA CITY",21.0411065,71.4488241
"NAGDA JN",23.4557842,75.4128034
"BAYANA",26.9158088,77.2893606
"YAMUNA BRIDGE",25.4263338,81.8613403
"MAKSI JN",NA,NA
"PATAN",23.8493246,72.1266255
"MAHESANA JN",23.6017117,72.3893594
"PUSHKAR TERMINUS",26.4909683,74.5378405
"ANUPGARH",29.1811533,73.1998604
"PHULERA JN.",26.873361,75.246084
"FATEHPUR-SHEKHAWATI",27.9950204,74.9617924
"NIMACH",24.4763852,74.8624092
"BAIDYANATHDHAM",24.4925182,86.7001808
"RAGHUNATHPUR",23.5343795,86.6686635
"BUXAR",25.5647103,83.9777482
"SONPUR JN.",25.6971213,85.1686371
"DURGAPUR",23.5204443,87.3119227
"ANDAL JN.",23.5789648,87.181588
"SAINTHIA JN.",23.9505008,87.6813219
"HAZARIBAGH ROAD",24.1745349,85.8915478
"SONIPAT",28.9930823,77.0150735
"PALWAL",28.1487362,77.3320262
"SHAKUR BASTI",28.6817707,77.1285101
"GHAZIABAD JN.",28.6534158,77.4286592
"BALLABGARH",28.3421598,77.3255963
"KOSI KALAN",27.7873022,77.4371184
"DANKAUR",28.3476974,77.553344
"PHAPHUND",26.5997918,79.4648131
"KALIANPUR",26.5035838,80.2488596
"BARA BANKI JN.",26.9341557,81.1792178
"PANKI",50.8936635,18.7554428
"SAHIBABAD",28.6653643,77.3493347
"BULANDSHAHR",28.406963,77.8498292
"HATHRAS QILAH",27.6056212,78.0537813
"HATHRAS JN.",27.6246727,78.1372911
"FATEHPUR",25.8499808,80.8986502
"NELLORE",14.4425987,79.986456
"MELMARUVATHUR",12.4358776,79.8338276
"HINDUPUR",13.8185378,77.4988753
"KUPPAM",12.7470314,78.3330157
"RAMANAGARAM",12.7094487,77.2807423
"RAVIKAMPADU",16.1638093,80.7650878
"TUNI",17.355267,82.5429325
"TENALI JN.",16.2419927,80.6406409
"ONGOLE",15.5057232,80.049922
"RAJAHMUNDRY",17.0005383,81.8040345
"WARANGAL",17.9689008,79.5940544
"BHONGIR",17.5035389,78.8892146
"JANGAON",17.7288387,79.1604971
"VIZIANAGARAM JN.",18.111529,83.395852
"GHATSILA",22.587307,86.47438
"BELDA",22.0677949,87.3363934
"BARABHUM",23.0266303,86.3642866
"BHAGA JN",23.7239727,86.4057979
"KHANODIH",NA,NA
"CHANDRAPURA JN.",23.7554309,86.1202781
"HIJLI",22.6780655,87.6075294
"DONGAR GARH",21.1802432,80.7602394
"PENDRA ROAD",22.8656616,81.8879884
"GODHRA JN.",22.7768449,73.6047999
"DAKOR",22.7545035,73.1497121
"BORIVLI",19.2371877,72.8441358
"SANJAN",20.1921126,72.8179439
"UMBERGAON ROAD",20.1920314,72.7511256
"DAHANU ROAD",19.9913582,72.7436773
"VASAI ROAD",19.3824244,72.8318444
"DAHEJ",21.7129335,72.582009
"PERNEM",15.7198284,73.7963222
"DOMBIVLI CTL",19.2094006,73.0939483
"BOISAR",19.7968929,72.7451817
"ROHA",18.4389511,73.1167514
"IDGAH",NA,NA
"VRINDAVAN",27.5650088,77.6593394
"INDARA JN.",25.9874054,83.6186936
"DOHRIGHAT",26.2718899,83.5095097
"NALHATI JN.",24.2958323,87.8387787
"NIMTITA",24.6501906,87.970232
"JANGIPUR ROAD",24.4592995,88.0410711
"PATNA GHAT",25.5858256,85.2375208
"DIGHA GHAT",25.6370862,85.0986527
"R BLOCK HALT",NA,NA
"TILRATH",25.442095,86.066092
"KHAGARIA JN.",25.5060635,86.4670145
"DHANAURI",29.7764087,76.1754757
"SULTANGANJ",25.2401294,86.7404395
"BARAUT",29.0998902,77.2606149
"GARHI HARSARU JN.",NA,NA
"BEAS JN",31.5157168,75.2887369
"TARN TARAN",31.4538668,74.9267599
"BANIHAL",33.4370131,75.1939345
"BUDGAM",33.9348549,74.6400432
"BARAMULLA",34.1595145,74.3587473
"DERABABA NANAK",32.0321859,75.0304481
"VERKA JN.",31.6662061,74.9324863
"KHEM KARAN",31.1465771,74.5609746
"BHAGTANWALA",NA,NA
"QADIAN",31.819064,75.3791096
"MERTA CITY",26.644952,74.0309418
"BHILDI JN",24.194486,72.009414
"SARDARSAHAR",28.440419,74.493705
"MANANWALA",31.5881046,73.6918806
"NAKODAR JN.",31.1116892,75.4766106
"KOT KAPURA JN",30.5798615,74.8175194
"PHEPHNA JN.",25.7698605,84.0510038
"DINHATA",26.1290634,89.4694913
"HAIBARGAON",26.3442582,92.6809935
"TEZNARAYANPUR",25.3392504,87.711122
"BARSOI JN.",25.6511814,87.9236743
"TELTA",25.7882416,87.8457667
"DANGARI",NA,NA
"KOLAR",42.706385,-87.840225
"CHANNA PATNA",12.6492422,77.2002745
"DHARMAPURI",12.1065271,78.1361409
"LALGUDI",10.874405,78.8184432
"MANAMADURAI",9.6889977,78.4581434
"VIRUDUNAGAR JN",9.5947707,77.9574728
"CUDDALORE PORT JN.",11.7161656,79.7669089
"VRIDHA CHALAM JN.",11.533565,79.316448
"BHIMAVARAM TOWN",16.544893,81.521241
"MARKAPUR ROAD",15.7149089,79.3029798
"PEDDAPALLI",18.6161825,79.3831599
"MAHBUBABAD",17.5975284,80.0015307
"JAGITYAL",18.7908937,78.9118506
"KOTIPALLI",16.701377,82.0393515
"NANDYAL",15.4785694,78.4830934
"PENDLIMARRI",14.4491199,78.6313624
"MANOHARABAD",17.7664207,78.4680902
"JAKLAIR",16.5570013,77.6020569
"UMDANAGAR",17.2633519,78.3931102
"HUMNABAD",17.7682755,77.1312586
"MIRYALAGUDA",16.8753106,79.5659633
"PIDUGURALLA",16.4851565,79.8900552
"GADWAL",16.2336589,77.8081363
"RUPSA JN.",21.6224305,87.0188764
"BARIPADA PH",21.9322338,86.7516942
"BADAMPAHAR",22.0880314,86.1115583
"GRAM MASAGRAM",23.127734,88.01855
"SONAMUKHI PH",23.3075757,87.4157938
"BOBBILI JN.",18.5735047,83.3583654
"SALUR",18.5163848,83.2050863
"KATANGI",21.7704644,79.804459
"WARASEONI",21.7654015,80.0590804
"DALLI-RAJHARA",20.5831135,81.0809848
"GUDUM",56.520964,8.4601799
"BHILWARA",25.321377,74.586953
"KHAMBHAT",22.3180817,72.6189845
"ABU ROAD",24.4640731,72.7717775
"WANKANER",22.6213691,70.9530477
"MORVI",22.8119895,70.8236195
"MALIYA MIYANA JN.",23.103427,70.754784
"VIJAPUR",23.5609405,72.7510921
"ADRAJ MOTI",23.264317,72.5737187
"AMBLIYASAN JN.",NA,NA
"CHURCHGATE",18.9322453,72.8264378
"RAVLI JN",19.027685,72.8606
"ANDHERI",19.113645,72.8697339
"KALYAN JN",19.2354082,73.131024
"PALASDARI",18.870546,73.32076
"BADLAPUR",19.1667854,73.2367896
"AMBERNATH",19.1825167,73.1926023
"KASARA",19.6443033,73.4749718
"ASANGAON",19.4395401,73.3079024
"TITVALA",19.2990001,73.2238391
"DOMBIVLI",19.2094006,73.0939483
"THANE",19.2183307,72.9780897
"VIDYAVIHAR",19.079961,72.898767
"KURLA",19.0599836,72.889999
"GHAT KOPAR",19.0790239,72.9080122
"VASHI",51.5087387,-0.1381872
"MUMBAI VADALA ROAD",19.0151285,72.8580644
"BELAPUR C.B.D",19.0300657,73.0351138
"MANKHURD",19.0558482,72.9281589
"CHEMBUR",19.0327996,72.8963568
"NERUL",19.0355766,73.0228173
"LONAVLA",18.7546171,73.4062342
"SHIVAJINAGAR",12.9856503,77.6056927
"TALEGAON",18.7391977,73.6830521
"PANJIPARA",26.1431405,88.0240796
"KHADKI",18.5699361,73.8506427
"PAYYANUR",NA,NA
"GOMTINAGAR F",26.862338,81.0199613
"GHUTIARI SHARIF",22.3680893,88.5526441
"BANDA JN",25.4775726,80.3350487
"RAHIMABAD",26.7494681,80.8827451
"VANGAICHUNGPAO",24.758618,93.180196
"SRIKAKULAM ROAD",18.408939,83.903818
"JALESWAR",21.8038883,87.2269973
"NANDURBAR",21.7468548,74.123996
